{"items": [{"admin1Code": 900854, "admin1Name": "ASHANTI", "admin2Code": 1009377, "admin2Name": "EJURA SEKYE DUMASE", "marketId": 223, "marketLatitude": 7.383333, "marketLocalName": null, "marketLongitude": -1.366667, "marketName": "Ejura"}, {"admin1Code": 900854, "admin1Name": "ASHANTI", "admin2Code": 1009542, "admin2Name": "KMA", "marketId": 215, "marketLatitude": 6.683333, "marketLocalName": null, "marketLongitude": -1.616667, "marketName": "Kumasi"}, {"admin1Code": 900854, "admin1Name": "ASHANTI", "admin2Code": 1009375, "admin2Name": "OBUASI MUNICIPAL", "marketId": 216, "marketLatitude": 6.2, "marketLocalName": null, "marketLongitude": -1.666667, "marketName": "Obuasi"}, {"admin1Code": 900855, "admin1Name": "BRONG AHAFO", "admin2Code": 1009431, "admin2Name": "KINTAMPO NORTH", "marketId": 1726, "marketLatitude": 8.0592612, "marketLocalName": null, "marketLongitude": -1.72955030000002, "marketName": "Kintampo"}, {"admin1Code": 900855, "admin1Name": "BRONG AHAFO", "admin2Code": 1009437, "admin2Name": "PRU", "marketId": 1738, "marketLatitude": 8.21667, "marketLocalName": null, "marketLongitude": -0.65, "marketName": "Yeji"}, {"admin1Code": 900855, "admin1Name": "BRONG AHAFO", "admin2Code": 1009527, "admin2Name": "SENE EAST", "marketId": 1724, "marketLatitude": 7.784, "marketLocalName": null, "marketLongitude": -0.229, "marketName": "Kajeji"}, {"admin1Code": 900855, "admin1Name": "BRONG AHAFO", "admin2Code": 1009449, "admin2Name": "SUNYANI MUNICIPAL", "marketId": 217, "marketLatitude": 7.333333, "marketLocalName": null, "marketLongitude": -2.333333, "marketName": "Sunyani"}, {"admin1Code": 900855, "admin1Name": "BRONG AHAFO", "admin2Code": 1009536, "admin2Name": "TAIN", "marketId": 1711, "marketLatitude": 7.692, "marketLocalName": null, "marketLongitude": -2.23, "marketName": "Badu"}, {"admin1Code": 900855, "admin1Name": "BRONG AHAFO", "admin2Code": 1009532, "admin2Name": "TECHIMAN MUNICIPAL", "marketId": 218, "marketLatitude": 7.583333, "marketLocalName": null, "marketLongitude": -1.933333, "marketName": "Techiman"}, {"admin1Code": 900856, "admin1Name": "CENTRAL", "admin2Code": 1009424, "admin2Name": "CAPE COAST METRO", "marketId": 213, "marketLatitude": 5.105686, "marketLocalName": null, "marketLongitude": -1.241294, "marketName": "Cape Coast"}, {"admin1Code": 900856, "admin1Name": "CENTRAL", "admin2Code": 1009467, "admin2Name": "MFANTSIMAN", "marketId": 214, "marketLatitude": 5.266667, "marketLocalName": null, "marketLongitude": -1.016667, "marketName": "Mankessim"}, {"admin1Code": 900857, "admin1Name": "EASTERN", "admin2Code": 1009413, "admin2Name": "NEW JUABEN MUNICIPAL", "marketId": 212, "marketLatitude": 6.083333, "marketLocalName": null, "marketLongitude": -0.25, "marketName": "Koforidua"}, {"admin1Code": 900858, "admin1Name": "GREATER ACCRA", "admin2Code": 1009475, "admin2Name": "ACCRA METROPOLIS", "marketId": 209, "marketLatitude": 5.55, "marketLocalName": null, "marketLongitude": -0.216667, "marketName": "Accra"}, {"admin1Code": 900858, "admin1Name": "GREATER ACCRA", "admin2Code": 1009545, "admin2Name": "TEMA METROPOLIS", "marketId": 210, "marketLatitude": 5.616667, "marketLocalName": null, "marketLongitude": -0.016667, "marketName": "Tema"}, {"admin1Code": 900859, "admin1Name": "NORTHERN", "admin2Code": 1009349, "admin2Name": "BUNKPURUGU YONYO", "marketId": 1717, "marketLatitude": 10.5127231, "marketLocalName": null, "marketLongitude": 0.0980429999999614, "marketName": "Bunkprugu"}, {"admin1Code": 900859, "admin1Name": "NORTHERN", "admin2Code": 1009440, "admin2Name": "EAST GONJA", "marketId": 1735, "marketLatitude": 8.5525293, "marketLocalName": null, "marketLongitude": -0.518693799999937, "marketName": "Salaga"}, {"admin1Code": 900859, "admin1Name": "NORTHERN", "admin2Code": 1009444, "admin2Name": "GUSHIEGU", "marketId": 1721, "marketLatitude": 9.92129409999999, "marketLocalName": null, "marketLongitude": -0.217431799999985, "marketName": "Gushegu"}, {"admin1Code": 900859, "admin1Name": "NORTHERN", "admin2Code": 1009433, "admin2Name": "KPANDAI", "marketId": 1712, "marketLatitude": 8.3153241, "marketLocalName": null, "marketLongitude": -0.131656900000052, "marketName": "Banda"}, {"admin1Code": 900859, "admin1Name": "NORTHERN", "admin2Code": 1009433, "admin2Name": "KPANDAI", "marketId": 1727, "marketLatitude": 8.4705282, "marketLocalName": null, "marketLongitude": -0.0116586000000324, "marketName": "Kpandai"}, {"admin1Code": 900859, "admin1Name": "NORTHERN", "admin2Code": 1009351, "admin2Name": "MAMPRUSI EAST", "marketId": 1731, "marketLatitude": 10.523772, "marketLocalName": null, "marketLongitude": -0.370127599999932, "marketName": "Nalerigu"}, {"admin1Code": 900859, "admin1Name": "NORTHERN", "admin2Code": 1009445, "admin2Name": "NANUMBA NORTH", "marketId": 1714, "marketLatitude": 8.8497, "marketLocalName": null, "marketLongitude": 0.06303, "marketName": "Bimbilla"}, {"admin1Code": 900859, "admin1Name": "NORTHERN", "admin2Code": 1009443, "admin2Name": "SABOBA", "marketId": 1734, "marketLatitude": 9.7064051, "marketLocalName": null, "marketLongitude": 0.313678100000061, "marketName": "Saboba"}, {"admin1Code": 900859, "admin1Name": "NORTHERN", "admin2Code": 1009548, "admin2Name": "TAMALE NORTH SUB METRO", "marketId": 220, "marketLatitude": 9.4, "marketLocalName": null, "marketLongitude": -0.833333, "marketName": "Tamale"}, {"admin1Code": 900859, "admin1Name": "NORTHERN", "admin2Code": 1009520, "admin2Name": "YENDI MUNICIPAL", "marketId": 1739, "marketLatitude": 9.44504379999999, "marketLocalName": null, "marketLongitude": -0.00932660000000851, "marketName": "Yendi"}, {"admin1Code": 900859, "admin1Name": "NORTHERN", "admin2Code": 1009525, "admin2Name": "ZABZUGU", "marketId": 1740, "marketLatitude": 9.295001, "marketLocalName": null, "marketLongitude": 0.370127599999932, "marketName": "Zabzugu"}, {"admin1Code": 900860, "admin1Name": "UPPER EAST", "admin2Code": 1009516, "admin2Name": "BAWKU MUNICIPAL", "marketId": 1713, "marketLatitude": 11.0541118, "marketLocalName": null, "marketLongitude": -0.238538699999935, "marketName": "Bawku"}, {"admin1Code": 900860, "admin1Name": "UPPER EAST", "admin2Code": 1009352, "admin2Name": "BAWKU WEST", "marketId": 1741, "marketLatitude": 10.9379432, "marketLocalName": null, "marketLongitude": -0.480909800000063, "marketName": "Zebilla"}, {"admin1Code": 900860, "admin1Name": "UPPER EAST", "admin2Code": 1009342, "admin2Name": "BOLGATANGA MUNICIPAL", "marketId": 221, "marketLatitude": 10.785556, "marketLocalName": null, "marketLongitude": -0.851389, "marketName": "Bolga"}, {"admin1Code": 900860, "admin1Name": "UPPER EAST", "admin2Code": 1009343, "admin2Name": "BONGO", "marketId": 1715, "marketLatitude": 10.9090167, "marketLocalName": null, "marketLongitude": -0.807977199999982, "marketName": "Bongo"}, {"admin1Code": 900860, "admin1Name": "UPPER EAST", "admin2Code": 1009512, "admin2Name": "BUILSA SOUTH", "marketId": 1719, "marketLatitude": 10.4510501, "marketLocalName": null, "marketLongitude": -1.30595990000006, "marketName": "Fumbisi"}, {"admin1Code": 900860, "admin1Name": "UPPER EAST", "admin2Code": 1009350, "admin2Name": "GARU TEMPANE", "marketId": 1720, "marketLatitude": 10.8535609, "marketLocalName": null, "marketLongitude": -0.17993679999995, "marketName": "Garu"}, {"admin1Code": 900860, "admin1Name": "UPPER EAST", "admin2Code": 1009348, "admin2Name": "KASENA NANKANA EAST", "marketId": 1732, "marketLatitude": 10.8940247, "marketLocalName": null, "marketLongitude": -1.09214729999996, "marketName": "Navrongo"}, {"admin1Code": 900861, "admin1Name": "UPPER WEST", "admin2Code": 1009339, "admin2Name": "JIRAPA", "marketId": 1722, "marketLatitude": 10.5237742, "marketLocalName": null, "marketLongitude": -2.70335750000003, "marketName": "Jirapa"}, {"admin1Code": 900861, "admin1Name": "UPPER WEST", "admin2Code": 1009508, "admin2Name": "LAWRA", "marketId": 1729, "marketLatitude": 10.6458978, "marketLocalName": null, "marketLongitude": -2.88265339999998, "marketName": "Lawra"}, {"admin1Code": 900861, "admin1Name": "UPPER WEST", "admin2Code": 1009506, "admin2Name": "NADOWLI-KALEO", "marketId": 1730, "marketLatitude": 10.3668941, "marketLocalName": null, "marketLongitude": -2.66360659999998, "marketName": "Nadowli"}, {"admin1Code": 900861, "admin1Name": "UPPER WEST", "admin2Code": 1009347, "admin2Name": "SISSALA EAST", "marketId": 1736, "marketLatitude": 10.8782988, "marketLocalName": null, "marketLongitude": -1.98325939999995, "marketName": "Tumu"}, {"admin1Code": 900861, "admin1Name": "UPPER WEST", "admin2Code": 1009338, "admin2Name": "WA MUNICIPAL", "marketId": 222, "marketLatitude": 10.05, "marketLocalName": null, "marketLongitude": -2.483333, "marketName": "Wa"}, {"admin1Code": 900861, "admin1Name": "UPPER WEST", "admin2Code": 1009345, "admin2Name": "WA WEST", "marketId": 1737, "marketLatitude": 9.82602, "marketLocalName": null, "marketLongitude": -2.68043, "marketName": "Wichau"}, {"admin1Code": 900862, "admin1Name": "VOLTA", "admin2Code": 1009485, "admin2Name": "HO MUNICIPAL", "marketId": 219, "marketLatitude": 6.6, "marketLocalName": null, "marketLongitude": 0.466667, "marketName": "Ho"}, {"admin1Code": 900862, "admin1Name": "VOLTA", "admin2Code": 1009486, "admin2Name": "HOHOE MUNICIPAL", "marketId": 2802, "marketLatitude": 7.15181, "marketLocalName": null, "marketLongitude": 0.4736, "marketName": "Hohoe"}, {"admin1Code": 900862, "admin1Name": "VOLTA", "admin2Code": 1009550, "admin2Name": "KADJEBI", "marketId": 1723, "marketLatitude": 7.5298852, "marketLocalName": null, "marketLongitude": 0.473829300000034, "marketName": "Kadjebi"}, {"admin1Code": 900862, "admin1Name": "VOLTA", "admin2Code": 1009366, "admin2Name": "KRACHI EAST", "marketId": 1718, "marketLatitude": 8.0601167, "marketLocalName": null, "marketLongitude": 0.184621699999979, "marketName": "Dambai"}, {"admin1Code": 900862, "admin1Name": "VOLTA", "admin2Code": 1009480, "admin2Name": "KRACHI NCHUMURU", "marketId": 1716, "marketLatitude": 8.1584364, "marketLocalName": null, "marketLongitude": -0.039653899999962, "marketName": "Borae"}, {"admin1Code": 900862, "admin1Name": "VOLTA", "admin2Code": 1009479, "admin2Name": "KRACHI WEST", "marketId": 1725, "marketLatitude": 7.8014452, "marketLocalName": null, "marketLongitude": -0.0513246000000435, "marketName": "Kete Krachi"}, {"admin1Code": 900862, "admin1Name": "VOLTA", "admin2Code": 1009367, "admin2Name": "NKWANTA SOUTH", "marketId": 1728, "marketLatitude": 8.4654248, "marketLocalName": null, "marketLongitude": 0.359213199999999, "marketName": "Kpassa"}, {"admin1Code": 900862, "admin1Name": "VOLTA", "admin2Code": 1009367, "admin2Name": "NKWANTA SOUTH", "marketId": 1733, "marketLatitude": 8.2603111, "marketLocalName": null, "marketLongitude": 0.522109300000011, "marketName": "Nkwanta"}, {"admin1Code": 900863, "admin1Name": "WESTERN", "admin2Code": 1009404, "admin2Name": "SEKONDI TAKORADI", "marketId": 211, "marketLatitude": 4.933333, "marketLocalName": null, "marketLongitude": -1.7, "marketName": "Sekondi/Takoradi"}], "page": 1, "totalItems": 47}