{"items": [{"admin1Code": 900712, "admin1Name": "BOUCLE DU MOUHOUN", "admin2Code": 1008321, "admin2Name": "BAL\u00c9", "marketId": 3364, "marketLatitude": 11.75073759, "marketLocalName": null, "marketLongitude": -2.928432631, "marketName": "Boromo"}, {"admin1Code": 900712, "admin1Name": "BOUCLE DU MOUHOUN", "admin2Code": 1008321, "admin2Name": "BAL\u00c9", "marketId": 3370, "marketLatitude": 11.53288094, "marketLocalName": null, "marketLongitude": -2.765253661, "marketName": "Fara"}, {"admin1Code": 900712, "admin1Name": "BOUCLE DU MOUHOUN", "admin2Code": 1008323, "admin2Name": "BANWA", "marketId": 3395, "marketLatitude": 12.17947006, "marketLocalName": null, "marketLongitude": -4.084841602, "marketName": "Solenzo"}, {"admin1Code": 900712, "admin1Name": "BOUCLE DU MOUHOUN", "admin2Code": 1008338, "admin2Name": "KOSSI", "marketId": 3368, "marketLatitude": 13.11833798, "marketLocalName": null, "marketLongitude": -4.158935217, "marketName": "Djibasso"}, {"admin1Code": 900712, "admin1Name": "BOUCLE DU MOUHOUN", "admin2Code": 1008338, "admin2Name": "KOSSI", "marketId": 2595, "marketLatitude": 12.733, "marketLocalName": null, "marketLongitude": -3.867, "marketName": "Nouna"}, {"admin1Code": 900712, "admin1Name": "BOUCLE DU MOUHOUN", "admin2Code": 1008344, "admin2Name": "MOUHOUN", "marketId": 1892, "marketLatitude": 12.4503003, "marketLocalName": null, "marketLongitude": -3.47003270000004, "marketName": "Dedougou"}, {"admin1Code": 900712, "admin1Name": "BOUCLE DU MOUHOUN", "admin2Code": 1008347, "admin2Name": "NAYALA", "marketId": 3374, "marketLatitude": 12.8201732, "marketLocalName": null, "marketLongitude": -3.200743986, "marketName": "Gassan"}, {"admin1Code": 900712, "admin1Name": "BOUCLE DU MOUHOUN", "admin2Code": 1008347, "admin2Name": "NAYALA", "marketId": 3398, "marketLatitude": 12.76046014, "marketLocalName": null, "marketLongitude": -2.89633031, "marketName": "Toma"}, {"admin1Code": 900712, "admin1Name": "BOUCLE DU MOUHOUN", "admin2Code": 1008358, "admin2Name": "SOUROU", "marketId": 141, "marketLatitude": 13.0725, "marketLocalName": null, "marketLongitude": -3.0694, "marketName": "Tougan"}, {"admin1Code": 900713, "admin1Name": "CASCADES", "admin2Code": 1008328, "admin2Name": "COMO\u00c9", "marketId": 129, "marketLatitude": 10.633333, "marketLocalName": null, "marketLongitude": -4.766667, "marketName": "Banfora"}, {"admin1Code": 900713, "admin1Name": "CASCADES", "admin2Code": 1008342, "admin2Name": "L\u00c9RABA", "marketId": 3369, "marketLatitude": 10.61286338, "marketLocalName": null, "marketLongitude": -5.107618089, "marketName": "Douna"}, {"admin1Code": 900714, "admin1Name": "CENTRE", "admin2Code": 1008334, "admin2Name": "KADIOGO", "marketId": 3376, "marketLatitude": 12.3561111, "marketLocalName": null, "marketLongitude": -1.5461111, "marketName": "Gounghin"}, {"admin1Code": 900714, "admin1Name": "CENTRE", "admin2Code": 1008334, "admin2Name": "KADIOGO", "marketId": 139, "marketLatitude": 12.3646, "marketLocalName": null, "marketLongitude": -1.5339, "marketName": "Ouagadougo (Sankaryare)"}, {"admin1Code": 900715, "admin1Name": "CENTRE-EST", "admin2Code": 1008326, "admin2Name": "BOULGOU", "marketId": 140, "marketLatitude": 11.78, "marketLocalName": null, "marketLongitude": -0.369722, "marketName": "Tenkodogo"}, {"admin1Code": 900715, "admin1Name": "CENTRE-EST", "admin2Code": 1008326, "admin2Name": "BOULGOU", "marketId": 3401, "marketLatitude": 11.17907725, "marketLocalName": null, "marketLongitude": -0.632253066, "marketName": "Zabr\u00e9"}, {"admin1Code": 900715, "admin1Name": "CENTRE-EST", "admin2Code": 1008339, "admin2Name": "KOULP\u00c9LOGO", "marketId": 3389, "marketLatitude": 11.47702066, "marketLocalName": null, "marketLongitude": 0.089308264, "marketName": "Ouargaye"}, {"admin1Code": 900715, "admin1Name": "CENTRE-EST", "admin2Code": 1008340, "admin2Name": "KOURITTENGA", "marketId": 3382, "marketLatitude": 12.18194222, "marketLocalName": null, "marketLongitude": -0.353159697, "marketName": "Koupela"}, {"admin1Code": 900715, "admin1Name": "CENTRE-EST", "admin2Code": 1008340, "admin2Name": "KOURITTENGA", "marketId": 1802, "marketLatitude": 12.2172, "marketLocalName": null, "marketLongitude": -0.4461, "marketName": "Pouytenga"}, {"admin1Code": 900716, "admin1Name": "CENTRE-NORD", "admin2Code": 1008322, "admin2Name": "BAM", "marketId": 137, "marketLatitude": 13.325833, "marketLocalName": null, "marketLongitude": -1.534722, "marketName": "Kongoussi"}, {"admin1Code": 900716, "admin1Name": "CENTRE-NORD", "admin2Code": 1008346, "admin2Name": "NAMENTENGA", "marketId": 3365, "marketLatitude": 12.66053421, "marketLocalName": null, "marketLongitude": -0.57324793, "marketName": "Boulsa"}, {"admin1Code": 900716, "admin1Name": "CENTRE-NORD", "admin2Code": 1008346, "admin2Name": "NAMENTENGA", "marketId": 3400, "marketLatitude": 13.58387728, "marketLocalName": null, "marketLongitude": -0.266710857, "marketName": "Yalgo"}, {"admin1Code": 900716, "admin1Name": "CENTRE-NORD", "admin2Code": 1008354, "admin2Name": "SANMATENGA", "marketId": 1803, "marketLatitude": 13.091667, "marketLocalName": null, "marketLongitude": -1.084444, "marketName": "Kaya"}, {"admin1Code": 900717, "admin1Name": "CENTRE-OUEST", "admin2Code": 1008327, "admin2Name": "BOULKIEMD\u00c9", "marketId": 138, "marketLatitude": 12.25, "marketLocalName": null, "marketLongitude": -2.366667, "marketName": "Koudougou"}, {"admin1Code": 900717, "admin1Name": "CENTRE-OUEST", "admin2Code": 1008353, "admin2Name": "SANGUI\u00c9", "marketId": 3391, "marketLatitude": 12.31910874, "marketLocalName": null, "marketLongitude": -2.470252656, "marketName": "R\u00e9o"}, {"admin1Code": 900717, "admin1Name": "CENTRE-OUEST", "admin2Code": 1008353, "admin2Name": "SANGUI\u00c9", "marketId": 3396, "marketLatitude": 11.92115556, "marketLocalName": null, "marketLongitude": -2.524757772, "marketName": "Tita"}, {"admin1Code": 900717, "admin1Name": "CENTRE-OUEST", "admin2Code": 1008356, "admin2Name": "SISSILI", "marketId": 1804, "marketLatitude": 11.1, "marketLocalName": null, "marketLongitude": -2.1, "marketName": "Leo"}, {"admin1Code": 900717, "admin1Name": "CENTRE-OUEST", "admin2Code": 1008363, "admin2Name": "ZIRO", "marketId": 3392, "marketLatitude": 11.54880038, "marketLocalName": null, "marketLongitude": -1.774084205, "marketName": "Sapouy"}, {"admin1Code": 900718, "admin1Name": "CENTRE-SUD", "admin2Code": 1008324, "admin2Name": "BAZ\u00c8GA", "marketId": 3380, "marketLatitude": 12.06483629, "marketLocalName": null, "marketLongitude": -1.339179114, "marketName": "Kombissiri"}, {"admin1Code": 900718, "admin1Name": "CENTRE-SUD", "admin2Code": 1008345, "admin2Name": "NAHOURI", "marketId": 1805, "marketLatitude": 11.009444, "marketLocalName": null, "marketLongitude": -0.870833, "marketName": "Guelwongo"}, {"admin1Code": 900718, "admin1Name": "CENTRE-SUD", "admin2Code": 1008345, "admin2Name": "NAHOURI", "marketId": 3390, "marketLatitude": 11.16657979, "marketLocalName": null, "marketLongitude": -1.145262077, "marketName": "Po"}, {"admin1Code": 900718, "admin1Name": "CENTRE-SUD", "admin2Code": 1008365, "admin2Name": "ZOUNDW\u00c9OGO", "marketId": 3383, "marketLatitude": 11.66414463, "marketLocalName": null, "marketLongitude": -1.071838641, "marketName": "Manga"}, {"admin1Code": 900719, "admin1Name": "EST", "admin2Code": 1008330, "admin2Name": "GNAGNA", "marketId": 3363, "marketLatitude": 12.9742949, "marketLocalName": null, "marketLongitude": -0.143599246, "marketName": "Bogand\u00e9"}, {"admin1Code": 900719, "admin1Name": "EST", "admin2Code": 1008331, "admin2Name": "GOURMA", "marketId": 134, "marketLatitude": 12.062222, "marketLocalName": null, "marketLongitude": 0.357778, "marketName": "Fada N'Gourma"}, {"admin1Code": 900719, "admin1Name": "EST", "admin2Code": 1008336, "admin2Name": "KOMANDJARI", "marketId": 3375, "marketLatitude": 12.63729384, "marketLocalName": null, "marketLongitude": 0.519187476, "marketName": "Gay\u00e9ri"}, {"admin1Code": 900719, "admin1Name": "EST", "admin2Code": 1008336, "admin2Name": "KOMANDJARI", "marketId": 3377, "marketLatitude": 13.018275, "marketLocalName": null, "marketLongitude": 0.7940556, "marketName": "Haaba"}, {"admin1Code": 900719, "admin1Name": "EST", "admin2Code": 1008337, "admin2Name": "KOMPIENGA", "marketId": 3381, "marketLatitude": 11.0805556, "marketLocalName": null, "marketLongitude": 0.7225, "marketName": "Kompienga"}, {"admin1Code": 900719, "admin1Name": "EST", "admin2Code": 1008359, "admin2Name": "TAPOA", "marketId": 3367, "marketLatitude": 12.03213566, "marketLocalName": null, "marketLongitude": 1.819785293, "marketName": "Diapaga"}, {"admin1Code": 900719, "admin1Name": "EST", "admin2Code": 1008359, "admin2Name": "TAPOA", "marketId": 1042, "marketLatitude": 12.47, "marketLocalName": null, "marketLongitude": 1.51, "marketName": "Kantchari (CBM)"}, {"admin1Code": 900719, "admin1Name": "EST", "admin2Code": 1008359, "admin2Name": "TAPOA", "marketId": 1043, "marketLatitude": 11.86, "marketLocalName": null, "marketLongitude": 1.69, "marketName": "Namouno (CBM)"}, {"admin1Code": 900719, "admin1Name": "EST", "admin2Code": 1008359, "admin2Name": "TAPOA", "marketId": 3386, "marketLatitude": 11.8633333, "marketLocalName": null, "marketLongitude": 1.6991667, "marketName": "Namounou"}, {"admin1Code": 900720, "admin1Name": "HAUTS-BASSINS", "admin2Code": 1008332, "admin2Name": "HOUET", "marketId": 2569, "marketLatitude": 11.183, "marketLocalName": null, "marketLongitude": -4.283, "marketName": "Bobo Dioulasso"}, {"admin1Code": 900720, "admin1Name": "HAUTS-BASSINS", "admin2Code": 1008332, "admin2Name": "HOUET", "marketId": 3371, "marketLatitude": 12.0502452, "marketLocalName": null, "marketLongitude": -4.668308027, "marketName": "Faramana"}, {"admin1Code": 900720, "admin1Name": "HAUTS-BASSINS", "admin2Code": 1008332, "admin2Name": "HOUET", "marketId": 1806, "marketLatitude": 11.198001, "marketLocalName": null, "marketLongitude": -4.28879410000001, "marketName": "Nieneta"}, {"admin1Code": 900720, "admin1Name": "HAUTS-BASSINS", "admin2Code": 1008335, "admin2Name": "K\u00c9N\u00c9DOUGOU", "marketId": 3387, "marketLatitude": 11.76581386, "marketLocalName": null, "marketLongitude": -4.81941609, "marketName": "N'Dorola"}, {"admin1Code": 900720, "admin1Name": "HAUTS-BASSINS", "admin2Code": 1008335, "admin2Name": "K\u00c9N\u00c9DOUGOU", "marketId": 3388, "marketLatitude": 10.98190879, "marketLocalName": null, "marketLongitude": -4.914183292, "marketName": "Orodara"}, {"admin1Code": 900720, "admin1Name": "HAUTS-BASSINS", "admin2Code": 1008360, "admin2Name": "TUY", "marketId": 3372, "marketLatitude": 11.45497043, "marketLocalName": null, "marketLongitude": -3.228637046, "marketName": "Founza"}, {"admin1Code": 900720, "admin1Name": "HAUTS-BASSINS", "admin2Code": 1008360, "admin2Name": "TUY", "marketId": 3379, "marketLatitude": 11.49382263, "marketLocalName": null, "marketLongitude": -3.52026516, "marketName": "Hound\u00e9"}, {"admin1Code": 900721, "admin1Name": "NORD", "admin2Code": 1008343, "admin2Name": "LOROUM", "marketId": 3397, "marketLatitude": 13.7707126, "marketLocalName": null, "marketLongitude": -2.069955774, "marketName": "Titao"}, {"admin1Code": 900721, "admin1Name": "NORD", "admin2Code": 1008351, "admin2Name": "PASSOR\u00c9", "marketId": 3399, "marketLatitude": 12.9595129, "marketLocalName": null, "marketLongitude": -2.261283759, "marketName": "Yako"}, {"admin1Code": 900721, "admin1Name": "NORD", "admin2Code": 1008362, "admin2Name": "YATENGA", "marketId": 1893, "marketLatitude": 13.5668258, "marketLocalName": null, "marketLongitude": -2.41099080000003, "marketName": "Ouahigouya"}, {"admin1Code": 900721, "admin1Name": "NORD", "admin2Code": 1008364, "admin2Name": "ZONDOMA", "marketId": 136, "marketLatitude": 13.207756, "marketLocalName": null, "marketLongitude": -2.358932, "marketName": "Gourcy"}, {"admin1Code": 900722, "admin1Name": "PLATEAU-CENTRAL", "admin2Code": 1008329, "admin2Name": "GANZOURGOU", "marketId": 3385, "marketLatitude": 12.27953223, "marketLocalName": null, "marketLongitude": -0.83586473, "marketName": "Mogt\u00e9do"}, {"admin1Code": 900722, "admin1Name": "PLATEAU-CENTRAL", "admin2Code": 1008329, "admin2Name": "GANZOURGOU", "marketId": 3403, "marketLatitude": 12.24724809, "marketLocalName": null, "marketLongitude": -0.619326186, "marketName": "Zorgho"}, {"admin1Code": 900722, "admin1Name": "PLATEAU-CENTRAL", "admin2Code": 1008341, "admin2Name": "KOURW\u00c9OGO", "marketId": 130, "marketLatitude": 12.660556, "marketLocalName": null, "marketLongitude": -1.892222, "marketName": "Bousse"}, {"admin1Code": 900722, "admin1Name": "PLATEAU-CENTRAL", "admin2Code": 1008349, "admin2Name": "OUBRITENGA", "marketId": 3402, "marketLatitude": 12.58171081, "marketLocalName": null, "marketLongitude": -1.29665568, "marketName": "Ziniar\u00e9"}, {"admin1Code": 900723, "admin1Name": "SAHEL", "admin2Code": 1008350, "admin2Name": "OUDALAN", "marketId": 135, "marketLatitude": 14.442309, "marketLocalName": null, "marketLongitude": -0.235449, "marketName": "Gorom Gorom"}, {"admin1Code": 900723, "admin1Name": "SAHEL", "admin2Code": 1008350, "admin2Name": "OUDALAN", "marketId": 3384, "marketLatitude": 14.64248076, "marketLocalName": null, "marketLongitude": 0.070854379, "marketName": "Markoye"}, {"admin1Code": 900723, "admin1Name": "SAHEL", "admin2Code": 1008355, "admin2Name": "S\u00c9NO", "marketId": 3394, "marketLatitude": 13.9702778, "marketLocalName": null, "marketLongitude": 0.3125222, "marketName": "Seytenga"}, {"admin1Code": 900723, "admin1Name": "SAHEL", "admin2Code": 1008357, "admin2Name": "SOUM", "marketId": 3361, "marketLatitude": 14.23068754, "marketLocalName": null, "marketLongitude": -0.858955296, "marketName": "Arbinda"}, {"admin1Code": 900723, "admin1Name": "SAHEL", "admin2Code": 1008357, "admin2Name": "SOUM", "marketId": 132, "marketLatitude": 14.101163, "marketLocalName": null, "marketLongitude": -1.627926, "marketName": "Djibo"}, {"admin1Code": 900723, "admin1Name": "SAHEL", "admin2Code": 1008361, "admin2Name": "YAGHA", "marketId": 133, "marketLatitude": 13.361864, "marketLocalName": null, "marketLongitude": 0.397528, "marketName": "Dori"}, {"admin1Code": 900723, "admin1Name": "SAHEL", "admin2Code": 1008361, "admin2Name": "YAGHA", "marketId": 3393, "marketLatitude": 13.4356665, "marketLocalName": null, "marketLongitude": 0.546079188, "marketName": "Sebba"}, {"admin1Code": 900724, "admin1Name": "SUD-OUEST", "admin2Code": 1008325, "admin2Name": "BOUGOURIBA", "marketId": 131, "marketLatitude": 10.966667, "marketLocalName": null, "marketLongitude": -3.25, "marketName": "Diebougou"}, {"admin1Code": 900724, "admin1Name": "SUD-OUEST", "admin2Code": 1008333, "admin2Name": "IOBA", "marketId": 3366, "marketLatitude": 11.14624711, "marketLocalName": null, "marketLongitude": -3.061058844, "marketName": "Dano"}, {"admin1Code": 900724, "admin1Name": "SUD-OUEST", "admin2Code": 1008333, "admin2Name": "IOBA", "marketId": 3378, "marketLatitude": 11.0080556, "marketLocalName": null, "marketLongitude": -2.7488889, "marketName": "Ham\u00e9l\u00e9"}, {"admin1Code": 900724, "admin1Name": "SUD-OUEST", "admin2Code": 1008348, "admin2Name": "NOUMBIEL", "marketId": 3362, "marketLatitude": 9.877115729, "marketLocalName": null, "marketLongitude": -2.922855615, "marketName": "Bati\u00e9"}, {"admin1Code": 900724, "admin1Name": "SUD-OUEST", "admin2Code": 1008352, "admin2Name": "PONI", "marketId": 3373, "marketLatitude": 10.32838756, "marketLocalName": null, "marketLongitude": -3.184251909, "marketName": "Gaoua"}], "page": 1, "totalItems": 67}