{"items": [{"admin1Code": 900532, "admin1Name": "Addis Ababa", "admin2Code": 1007458, "admin2Name": "AA ZONE1", "marketId": 480, "marketLatitude": 9.024325, "marketLocalName": null, "marketLongitude": 38.749226, "marketName": "Addis Ababa"}, {"admin1Code": 900532, "admin1Name": "Addis Ababa", "admin2Code": 1007458, "admin2Name": "AA ZONE1", "marketId": 3062, "marketLatitude": 9.031498093, "marketLocalName": null, "marketLongitude": 38.72325768, "marketName": "Ehel Berenda"}, {"admin1Code": 900533, "admin1Name": "Afar", "admin2Code": 1007497, "admin2Name": "ZONE1", "marketId": 1831, "marketLatitude": 11.563611, "marketLocalName": null, "marketLongitude": 41.439444, "marketName": "Asayta"}, {"admin1Code": 900533, "admin1Name": "Afar", "admin2Code": 1007497, "admin2Name": "ZONE1", "marketId": 3672, "marketLatitude": 11.60158333, "marketLocalName": null, "marketLongitude": 40.01602167, "marketName": "Chifra"}, {"admin1Code": 900533, "admin1Name": "Afar", "admin2Code": 1007504, "admin2Name": "ZONE2", "marketId": 511, "marketLatitude": 13.3564035, "marketLocalName": null, "marketLongitude": 39.7575272, "marketName": "Abaala"}, {"admin1Code": 900533, "admin1Name": "Afar", "admin2Code": 1007500, "admin2Name": "ZONE3", "marketId": 3666, "marketLatitude": 9.130721446, "marketLocalName": null, "marketLongitude": 40.16469611, "marketName": "Awash arba"}, {"admin1Code": 900533, "admin1Name": "Afar", "admin2Code": 1007515, "admin2Name": "ZONE4", "marketId": 3647, "marketLatitude": 12.36580196, "marketLocalName": null, "marketLongitude": 39.8823698, "marketName": "Gubiya/yalo"}, {"admin1Code": 900533, "admin1Name": "Afar", "admin2Code": 1007496, "admin2Name": "ZONE5", "marketId": 3669, "marketLatitude": 10.62496559, "marketLocalName": null, "marketLongitude": 40.30696486, "marketName": "Dalifagi"}, {"admin1Code": 900534, "admin1Name": "Amhara", "admin2Code": 1007521, "admin2Name": "Administrative unit not available", "marketId": 482, "marketLatitude": 11.6, "marketLocalName": null, "marketLongitude": 37.383333, "marketName": "Baher Dar"}, {"admin1Code": 900534, "admin1Name": "Amhara", "admin2Code": 1007483, "admin2Name": "E. GOJAM", "marketId": 3080, "marketLatitude": 10.44783, "marketLocalName": null, "marketLongitude": 38.202679, "marketName": "Bitchena"}, {"admin1Code": 900534, "admin1Name": "Amhara", "admin2Code": 1007483, "admin2Name": "E. GOJAM", "marketId": 502, "marketLatitude": 10.33361, "marketLocalName": null, "marketLongitude": 37.7299499999999, "marketName": "Debre Markos"}, {"admin1Code": 900534, "admin1Name": "Amhara", "admin2Code": 1007483, "admin2Name": "E. GOJAM", "marketId": 3061, "marketLatitude": 10.1679582, "marketLocalName": null, "marketLongitude": 38.14478488, "marketName": "Dejen"}, {"admin1Code": 900534, "admin1Name": "Amhara", "admin2Code": 1007483, "admin2Name": "E. GOJAM", "marketId": 496, "marketLatitude": 11.083333, "marketLocalName": null, "marketLongitude": 37.866667, "marketName": "Mota"}, {"admin1Code": 900534, "admin1Name": "Amhara", "admin2Code": 1007499, "admin2Name": "N. GONDER", "marketId": 510, "marketLatitude": 13.1581499999999, "marketLocalName": null, "marketLongitude": 37.9002909999999, "marketName": "Debark"}, {"admin1Code": 900534, "admin1Name": "Amhara", "admin2Code": 1007499, "admin2Name": "N. GONDER", "marketId": 485, "marketLatitude": 12.6, "marketLocalName": null, "marketLongitude": 37.466667, "marketName": "Gonder"}, {"admin1Code": 900534, "admin1Name": "Amhara", "admin2Code": 1007484, "admin2Name": "N. SHEWA (R3)", "marketId": 467, "marketLatitude": 9.9833333, "marketLocalName": null, "marketLongitude": 39.9833333, "marketName": "Abomsa"}, {"admin1Code": 900534, "admin1Name": "Amhara", "admin2Code": 1007484, "admin2Name": "N. SHEWA (R3)", "marketId": 504, "marketLatitude": 9.6833333, "marketLocalName": null, "marketLongitude": 39.5333333, "marketName": "Debre Birhan"}, {"admin1Code": 900534, "admin1Name": "Amhara", "admin2Code": 1007530, "admin2Name": "N. WELLO", "marketId": 475, "marketLatitude": 12.15, "marketLocalName": null, "marketLongitude": 39.633333, "marketName": "Kobo"}, {"admin1Code": 900534, "admin1Name": "Amhara", "admin2Code": 1007530, "admin2Name": "N. WELLO", "marketId": 3067, "marketLatitude": 11.666251, "marketLocalName": null, "marketLongitude": 39.6576496, "marketName": "Mersa"}, {"admin1Code": 900534, "admin1Name": "Amhara", "admin2Code": 1007530, "admin2Name": "N. WELLO", "marketId": 465, "marketLatitude": 12.016667, "marketLocalName": null, "marketLongitude": 39.633333, "marketName": "Robit"}, {"admin1Code": 900534, "admin1Name": "Amhara", "admin2Code": 1007530, "admin2Name": "N. WELLO", "marketId": 3070, "marketLatitude": 12.01666, "marketLocalName": null, "marketLongitude": 39.6333, "marketName": "Shewa Robit"}, {"admin1Code": 900534, "admin1Name": "Amhara", "admin2Code": 1007531, "admin2Name": "OROMIYA", "marketId": 469, "marketLatitude": 11.183333, "marketLocalName": null, "marketLongitude": 40.016667, "marketName": "Bati"}, {"admin1Code": 900534, "admin1Name": "Amhara", "admin2Code": 1007531, "admin2Name": "OROMIYA", "marketId": 3065, "marketLatitude": 10.71957352, "marketLocalName": null, "marketLongitude": 39.8729806, "marketName": "Kemise"}, {"admin1Code": 900534, "admin1Name": "Amhara", "admin2Code": 1007498, "admin2Name": "S. GONDER", "marketId": 492, "marketLatitude": 12.133333, "marketLocalName": null, "marketLongitude": 38.05, "marketName": "Ebinat"}, {"admin1Code": 900534, "admin1Name": "Amhara", "admin2Code": 1007532, "admin2Name": "S. WELLO", "marketId": 489, "marketLatitude": 10.633333, "marketLocalName": null, "marketLongitude": 38.783333, "marketName": "Ajeber"}, {"admin1Code": 900534, "admin1Name": "Amhara", "admin2Code": 1007532, "admin2Name": "S. WELLO", "marketId": 484, "marketLatitude": 11.133333, "marketLocalName": null, "marketLongitude": 39.633333, "marketName": "Dessie"}, {"admin1Code": 900534, "admin1Name": "Amhara", "admin2Code": 1007532, "admin2Name": "S. WELLO", "marketId": 3064, "marketLatitude": 10.92254452, "marketLocalName": null, "marketLongitude": 39.7841354, "marketName": "Harbu"}, {"admin1Code": 900534, "admin1Name": "Amhara", "admin2Code": 1007532, "admin2Name": "S. WELLO", "marketId": 3066, "marketLatitude": 11.22999, "marketLocalName": null, "marketLongitude": 39.063251, "marketName": "Masha"}, {"admin1Code": 900534, "admin1Name": "Amhara", "admin2Code": 1007532, "admin2Name": "S. WELLO", "marketId": 3068, "marketLatitude": 11.10204766, "marketLocalName": null, "marketLongitude": 39.62717044, "marketName": "Segno Gebeya"}, {"admin1Code": 900534, "admin1Name": "Amhara", "admin2Code": 1007490, "admin2Name": "W. GOJAM", "marketId": 503, "marketLatitude": 10.7, "marketLocalName": null, "marketLongitude": 37.0666667, "marketName": "Bure"}, {"admin1Code": 900534, "admin1Name": "Amhara", "admin2Code": 1007490, "admin2Name": "W. GOJAM", "marketId": 3069, "marketLatitude": 10.677966, "marketLocalName": null, "marketLongitude": 37.375442, "marketName": "Jiga"}, {"admin1Code": 900534, "admin1Name": "Amhara", "admin2Code": 1007529, "admin2Name": "W. HAMRA", "marketId": 497, "marketLatitude": 12.630556, "marketLocalName": null, "marketLongitude": 39.034722, "marketName": "Sekota"}, {"admin1Code": 900535, "admin1Name": "B. Gumuz", "admin2Code": 1007480, "admin2Name": "ASOSA", "marketId": 1832, "marketLatitude": 10.06667, "marketLocalName": null, "marketLongitude": 34.53333, "marketName": "Assosa"}, {"admin1Code": 900535, "admin1Name": "B. Gumuz", "admin2Code": 1007480, "admin2Name": "ASOSA", "marketId": 3668, "marketLatitude": 10.5981383, "marketLocalName": null, "marketLongitude": 34.87133204, "marketName": "Sherkole"}, {"admin1Code": 900535, "admin1Name": "B. Gumuz", "admin2Code": 1007519, "admin2Name": "KAMASHI", "marketId": 5064, "marketLatitude": 9.4847, "marketLocalName": null, "marketLongitude": 35.9141, "marketName": "Kemashi"}, {"admin1Code": 900535, "admin1Name": "B. Gumuz", "admin2Code": 1007509, "admin2Name": "METEKEL", "marketId": 3670, "marketLatitude": 11.2, "marketLocalName": null, "marketLongitude": 35.35, "marketName": "Cheiti"}, {"admin1Code": 900535, "admin1Name": "B. Gumuz", "admin2Code": 1007509, "admin2Name": "METEKEL", "marketId": 3671, "marketLatitude": 11.15905, "marketLocalName": null, "marketLongitude": 36.343809, "marketName": "Gilgelbeles"}, {"admin1Code": 900536, "admin1Name": "Dire Dawa", "admin2Code": 1007487, "admin2Name": "DIRE DAWA", "marketId": 472, "marketLatitude": 9.593056, "marketLocalName": null, "marketLongitude": 41.866111, "marketName": "Diredawa"}, {"admin1Code": 900537, "admin1Name": "Gambela", "admin2Code": 1007492, "admin2Name": "GODERE", "marketId": 517, "marketLatitude": 7.233333, "marketLocalName": null, "marketLongitude": 35.316667, "marketName": "Meti"}, {"admin1Code": 900537, "admin1Name": "Gambela", "admin2Code": 1007507, "admin2Name": "ZONE 1", "marketId": 506, "marketLatitude": 8.25, "marketLocalName": null, "marketLongitude": 34.5833333, "marketName": "Gambela"}, {"admin1Code": 900537, "admin1Name": "Gambela", "admin2Code": 1007507, "admin2Name": "ZONE 1", "marketId": 4977, "marketLatitude": 8.211944, "marketLocalName": null, "marketLongitude": 34.267556, "marketName": "Itang town"}, {"admin1Code": 900537, "admin1Name": "Gambela", "admin2Code": 1007507, "admin2Name": "ZONE 1", "marketId": 4975, "marketLatitude": 8.153333, "marketLocalName": null, "marketLongitude": 34.701833, "marketName": "Jewi camp"}, {"admin1Code": 900537, "admin1Name": "Gambela", "admin2Code": 1007507, "admin2Name": "ZONE 1", "marketId": 4976, "marketLatitude": 8.273107, "marketLocalName": null, "marketLongitude": 34.272213, "marketName": "Terfam-Tierkidi"}, {"admin1Code": 900537, "admin1Name": "Gambela", "admin2Code": 1007518, "admin2Name": "ZONE 2", "marketId": 4974, "marketLatitude": 7.673833, "marketLocalName": null, "marketLongitude": 34.255, "marketName": "Old Nuer Site (Pugnido I)"}, {"admin1Code": 900537, "admin1Name": "Gambela", "admin2Code": 1007518, "admin2Name": "ZONE 2", "marketId": 4970, "marketLatitude": 7.640667, "marketLocalName": null, "marketLongitude": 34.253, "marketName": "Pugnido town"}, {"admin1Code": 900537, "admin1Name": "Gambela", "admin2Code": 1007518, "admin2Name": "ZONE 2", "marketId": 3078, "marketLatitude": 7.749505, "marketLocalName": null, "marketLongitude": 34.426848, "marketName": "Punido"}, {"admin1Code": 900537, "admin1Name": "Gambela", "admin2Code": 1007518, "admin2Name": "ZONE 2", "marketId": 4973, "marketLatitude": 7.686667, "marketLocalName": null, "marketLongitude": 34.220833, "marketName": "Village 12 (Pugnido I)"}, {"admin1Code": 900537, "admin1Name": "Gambela", "admin2Code": 1007517, "admin2Name": "ZONE 3", "marketId": 3651, "marketLatitude": 8.326658856, "marketLocalName": null, "marketLongitude": 33.95340763, "marketName": "Kowerneng/Korgang"}, {"admin1Code": 900538, "admin1Name": "Harari", "admin2Code": 1007462, "admin2Name": "HARAR/HUNDENE", "marketId": 3075, "marketLatitude": 9.31387, "marketLocalName": null, "marketLongitude": 42.11815, "marketName": "Harar"}, {"admin1Code": 900539, "admin1Name": "Oromia", "admin2Code": 1007479, "admin2Name": "ARSI", "marketId": 491, "marketLatitude": 7.95, "marketLocalName": null, "marketLongitude": 39.133333, "marketName": "Assela"}, {"admin1Code": 900539, "admin1Name": "Oromia", "admin2Code": 1007479, "admin2Name": "ARSI", "marketId": 3063, "marketLatitude": 8.128916602, "marketLocalName": null, "marketLongitude": 39.23136914, "marketName": "Eteya"}, {"admin1Code": 900539, "admin1Name": "Oromia", "admin2Code": 1007479, "admin2Name": "ARSI", "marketId": 495, "marketLatitude": 8.486530303955078, "marketLocalName": null, "marketLongitude": 39.83137512207031, "marketName": "Merti"}, {"admin1Code": 900539, "admin1Name": "Oromia", "admin2Code": 1007488, "admin2Name": "BALE", "marketId": 471, "marketLatitude": 7.25, "marketLocalName": null, "marketLongitude": 40.466667, "marketName": "Delo"}, {"admin1Code": 900539, "admin1Name": "Oromia", "admin2Code": 1007488, "admin2Name": "BALE", "marketId": 3663, "marketLatitude": 7.125928525, "marketLocalName": null, "marketLongitude": 40.71748753, "marketName": "Ginnir"}, {"admin1Code": 900539, "admin1Name": "Oromia", "admin2Code": 1007488, "admin2Name": "BALE", "marketId": 515, "marketLatitude": 6.10803, "marketLocalName": null, "marketLongitude": 40.7552, "marketName": "Gordamole"}, {"admin1Code": 900539, "admin1Name": "Oromia", "admin2Code": 1007488, "admin2Name": "BALE", "marketId": 483, "marketLatitude": 7.133333, "marketLocalName": null, "marketLongitude": 40.0, "marketName": "Robe"}, {"admin1Code": 900539, "admin1Name": "Oromia", "admin2Code": 1007481, "admin2Name": "BORENA", "marketId": 3654, "marketLatitude": 3.534996, "marketLocalName": null, "marketLongitude": 39.040371, "marketName": "Moyale"}, {"admin1Code": 900539, "admin1Name": "Oromia", "admin2Code": 1007481, "admin2Name": "BORENA", "marketId": 479, "marketLatitude": 4.883333, "marketLocalName": null, "marketLongitude": 38.083333, "marketName": "Yabelo"}, {"admin1Code": 900539, "admin1Name": "Oromia", "admin2Code": 1007501, "admin2Name": "E. HARERGE", "marketId": 462, "marketLatitude": 9.225556, "marketLocalName": null, "marketLongitude": 42.332222, "marketName": "Babile"}, {"admin1Code": 900539, "admin1Name": "Oromia", "admin2Code": 1007501, "admin2Name": "E. HARERGE", "marketId": 463, "marketLatitude": 9.11667, "marketLocalName": null, "marketLongitude": 41.61667, "marketName": "Beddenno"}, {"admin1Code": 900539, "admin1Name": "Oromia", "admin2Code": 1007501, "admin2Name": "E. HARERGE", "marketId": 464, "marketLatitude": 9.3166667, "marketLocalName": null, "marketLongitude": 41.41667, "marketName": "Deder"}, {"admin1Code": 900539, "admin1Name": "Oromia", "admin2Code": 1007501, "admin2Name": "E. HARERGE", "marketId": 3667, "marketLatitude": 9.132234, "marketLocalName": null, "marketLongitude": 41.83593, "marketName": "Girawa"}, {"admin1Code": 900539, "admin1Name": "Oromia", "admin2Code": 1007501, "admin2Name": "E. HARERGE", "marketId": 3076, "marketLatitude": 9.4217, "marketLocalName": null, "marketLongitude": 42.0333, "marketName": "Haromaya"}, {"admin1Code": 900539, "admin1Name": "Oromia", "admin2Code": 1007495, "admin2Name": "E. SHEWA", "marketId": 512, "marketLatitude": 8.55, "marketLocalName": null, "marketLongitude": 39.266667, "marketName": "Nazareth"}, {"admin1Code": 900539, "admin1Name": "Oromia", "admin2Code": 1007495, "admin2Name": "E. SHEWA", "marketId": 488, "marketLatitude": 7.18333, "marketLocalName": null, "marketLongitude": 38.58333, "marketName": "Shashemene"}, {"admin1Code": 900539, "admin1Name": "Oromia", "admin2Code": 1007495, "admin2Name": "E. SHEWA", "marketId": 468, "marketLatitude": 8.66667, "marketLocalName": null, "marketLongitude": 39.43333, "marketName": "Wolenchiti"}, {"admin1Code": 900539, "admin1Name": "Oromia", "admin2Code": 1007495, "admin2Name": "E. SHEWA", "marketId": 501, "marketLatitude": 7.933333, "marketLocalName": null, "marketLongitude": 38.716667, "marketName": "Ziway"}, {"admin1Code": 900539, "admin1Name": "Oromia", "admin2Code": 1007516, "admin2Name": "E. WELLEGA", "marketId": 499, "marketLatitude": 9.083333, "marketLocalName": null, "marketLongitude": 36.55, "marketName": "Nekempt"}, {"admin1Code": 900539, "admin1Name": "Oromia", "admin2Code": 1007489, "admin2Name": "GUJI", "marketId": 514, "marketLatitude": 5.66667, "marketLocalName": null, "marketLongitude": 39.43333, "marketName": "Derashe"}, {"admin1Code": 900539, "admin1Name": "Oromia", "admin2Code": 1007489, "admin2Name": "GUJI", "marketId": 3660, "marketLatitude": 5.338377, "marketLocalName": null, "marketLongitude": 39.568779, "marketName": "Negele"}, {"admin1Code": 900539, "admin1Name": "Oromia", "admin2Code": 1007503, "admin2Name": "JIMMA", "marketId": 486, "marketLatitude": 7.666667, "marketLocalName": null, "marketLongitude": 36.833333, "marketName": "Jimma"}, {"admin1Code": 900539, "admin1Name": "Oromia", "admin2Code": 1007503, "admin2Name": "JIMMA", "marketId": 494, "marketLatitude": 7.666667, "marketLocalName": null, "marketLongitude": 36.833333, "marketName": "Kersa"}, {"admin1Code": 900539, "admin1Name": "Oromia", "admin2Code": 1007513, "admin2Name": "N. SHEWA (R4)", "marketId": 3652, "marketLatitude": 10.00406191, "marketLocalName": null, "marketLongitude": 38.24535905, "marketName": "Gohatsiyon/GebreGuracha"}, {"admin1Code": 900539, "admin1Name": "Oromia", "admin2Code": 1007494, "admin2Name": "S.W. SHEWA", "marketId": 500, "marketLatitude": 8.533333, "marketLocalName": null, "marketLongitude": 37.983333, "marketName": "Woliso"}, {"admin1Code": 900539, "admin1Name": "Oromia", "admin2Code": 1007478, "admin2Name": "W. HARERGE", "marketId": 470, "marketLatitude": 8.9, "marketLocalName": null, "marketLongitude": 40.783333, "marketName": "Bedessa"}, {"admin1Code": 900539, "admin1Name": "Oromia", "admin2Code": 1007478, "admin2Name": "W. HARERGE", "marketId": 3077, "marketLatitude": 9.083333, "marketLocalName": null, "marketLongitude": 40.8666632, "marketName": "Chiro"}, {"admin1Code": 900539, "admin1Name": "Oromia", "admin2Code": 1007478, "admin2Name": "W. HARERGE", "marketId": 3665, "marketLatitude": 8.601158098, "marketLocalName": null, "marketLongitude": 40.3242858, "marketName": "Mechara"}, {"admin1Code": 900539, "admin1Name": "Oromia", "admin2Code": 1007514, "admin2Name": "WEST SHEWA", "marketId": 481, "marketLatitude": 8.983333, "marketLocalName": null, "marketLongitude": 37.85, "marketName": "Ambo"}, {"admin1Code": 900540, "admin1Name": "SNNPR", "admin2Code": 1007464, "admin2Name": "ALABA SW", "marketId": 3079, "marketLatitude": 7.455279, "marketLocalName": null, "marketLongitude": 38.137204, "marketName": "Alaba"}, {"admin1Code": 900540, "admin1Name": "SNNPR", "admin2Code": 1007466, "admin2Name": "AMARO SW", "marketId": 490, "marketLatitude": 5.834874153137207, "marketLocalName": null, "marketLongitude": 37.89777755737305, "marketName": "Amaro"}, {"admin1Code": 900540, "admin1Name": "SNNPR", "admin2Code": 1007475, "admin2Name": "GAMO GOFA", "marketId": 3657, "marketLatitude": 6.011019444, "marketLocalName": null, "marketLongitude": 37.53800556, "marketName": "Arba Minch"}, {"admin1Code": 900540, "admin1Name": "SNNPR", "admin2Code": 1007475, "admin2Name": "GAMO GOFA", "marketId": 473, "marketLatitude": 6.616667, "marketLocalName": null, "marketLongitude": 37.15, "marketName": "Gamo Gofa"}, {"admin1Code": 900540, "admin1Name": "SNNPR", "admin2Code": 1007475, "admin2Name": "GAMO GOFA", "marketId": 3658, "marketLatitude": 6.054313692, "marketLocalName": null, "marketLongitude": 37.17284365, "marketName": "Kemba"}, {"admin1Code": 900540, "admin1Name": "SNNPR", "admin2Code": 1007475, "admin2Name": "GAMO GOFA", "marketId": 3648, "marketLatitude": 6.300757, "marketLocalName": null, "marketLongitude": 36.878471, "marketName": "Sawla"}, {"admin1Code": 900540, "admin1Name": "SNNPR", "admin2Code": 1007476, "admin2Name": "GEDEO", "marketId": 3659, "marketLatitude": 6.412448889, "marketLocalName": null, "marketLongitude": 38.31202333, "marketName": "Dila"}, {"admin1Code": 900540, "admin1Name": "SNNPR", "admin2Code": 1007476, "admin2Name": "GEDEO", "marketId": 478, "marketLatitude": 6.316667, "marketLocalName": null, "marketLongitude": 38.266667, "marketName": "Wonago"}, {"admin1Code": 900540, "admin1Name": "SNNPR", "admin2Code": 1007477, "admin2Name": "GURAGE", "marketId": 4108, "marketLatitude": 8.0666, "marketLocalName": null, "marketLongitude": 38.4666, "marketName": "Enseno"}, {"admin1Code": 900540, "admin1Name": "SNNPR", "admin2Code": 1007520, "admin2Name": "HADIYA", "marketId": 474, "marketLatitude": 7.583333, "marketLocalName": null, "marketLongitude": 37.883333, "marketName": "Hossana"}, {"admin1Code": 900540, "admin1Name": "SNNPR", "admin2Code": 1007469, "admin2Name": "KONSO SW", "marketId": 493, "marketLatitude": 5.25, "marketLocalName": null, "marketLongitude": 37.483333, "marketName": "Karati"}, {"admin1Code": 900540, "admin1Name": "SNNPR", "admin2Code": 1007486, "admin2Name": "SELTI", "marketId": 3664, "marketLatitude": 7.790099444, "marketLocalName": null, "marketLongitude": 38.24548556, "marketName": "Dalocha"}, {"admin1Code": 900540, "admin1Name": "SNNPR", "admin2Code": 1007485, "admin2Name": "SIDAMA", "marketId": 3650, "marketLatitude": 6.60054495, "marketLocalName": null, "marketLongitude": 38.42066556, "marketName": "Aleta Wondo"}, {"admin1Code": 900540, "admin1Name": "SNNPR", "admin2Code": 1007485, "admin2Name": "SIDAMA", "marketId": 513, "marketLatitude": 6.216667, "marketLocalName": null, "marketLongitude": 39.016667, "marketName": "Aroresa"}, {"admin1Code": 900540, "admin1Name": "SNNPR", "admin2Code": 1007485, "admin2Name": "SIDAMA", "marketId": 516, "marketLatitude": 7.05, "marketLocalName": null, "marketLongitude": 38.466667, "marketName": "Hawassa"}, {"admin1Code": 900540, "admin1Name": "SNNPR", "admin2Code": 1007470, "admin2Name": "SOUTH OMO", "marketId": 3661, "marketLatitude": 5.787813211, "marketLocalName": null, "marketLongitude": 36.56731973, "marketName": "Jinka"}, {"admin1Code": 900540, "admin1Name": "SNNPR", "admin2Code": 1007470, "admin2Name": "SOUTH OMO", "marketId": 3656, "marketLatitude": 5.51978896, "marketLocalName": null, "marketLongitude": 36.73043032, "marketName": "Key Afer"}, {"admin1Code": 900540, "admin1Name": "SNNPR", "admin2Code": 1007470, "admin2Name": "SOUTH OMO", "marketId": 498, "marketLatitude": 4.966667, "marketLocalName": null, "marketLongitude": 36.483333, "marketName": "Turmi"}, {"admin1Code": 900540, "admin1Name": "SNNPR", "admin2Code": 1007537, "admin2Name": "WELAYITA", "marketId": 476, "marketLatitude": 6.85, "marketLocalName": null, "marketLongitude": 37.75, "marketName": "Sodo"}, {"admin1Code": 900541, "admin1Name": "Somali", "admin2Code": 1007506, "admin2Name": "AFDER", "marketId": 4630, "marketLatitude": 5.33972, "marketLocalName": null, "marketLongitude": 41.882458, "marketName": "Charati"}, {"admin1Code": 900541, "admin1Name": "Somali", "admin2Code": 1007536, "admin2Name": "GODE", "marketId": 460, "marketLatitude": 6.0225, "marketLocalName": null, "marketLongitude": 43.130278, "marketName": "Gode"}, {"admin1Code": 900541, "admin1Name": "Somali", "admin2Code": 1007493, "admin2Name": "JIJIGA", "marketId": 461, "marketLatitude": 9.3333, "marketLocalName": null, "marketLongitude": 42.81667, "marketName": "Jijiga"}, {"admin1Code": 900541, "admin1Name": "Somali", "admin2Code": 1007523, "admin2Name": "KORAHE", "marketId": 3662, "marketLatitude": 6.737193, "marketLocalName": null, "marketLongitude": 44.279701, "marketName": "Kebri Dehar"}, {"admin1Code": 900541, "admin1Name": "Somali", "admin2Code": 1007502, "admin2Name": "LIBEN", "marketId": 3649, "marketLatitude": 5.19842, "marketLocalName": null, "marketLongitude": 40.01984, "marketName": "Dekasuftu"}, {"admin1Code": 900541, "admin1Name": "Somali", "admin2Code": 1007502, "admin2Name": "LIBEN", "marketId": 3108, "marketLatitude": 4.416665, "marketLocalName": null, "marketLongitude": 41.416665, "marketName": "Dolo Ado"}, {"admin1Code": 900541, "admin1Name": "Somali", "admin2Code": 1007502, "admin2Name": "LIBEN", "marketId": 3655, "marketLatitude": 5.112714, "marketLocalName": null, "marketLongitude": 40.654339, "marketName": "Filtu"}, {"admin1Code": 900542, "admin1Name": "Tigray", "admin2Code": 1007526, "admin2Name": "C. TIGRAY", "marketId": 466, "marketLatitude": 13.560833, "marketLocalName": null, "marketLongitude": 38.973889, "marketName": "Abi Adi"}, {"admin1Code": 900542, "admin1Name": "Tigray", "admin2Code": 1007526, "admin2Name": "C. TIGRAY", "marketId": 507, "marketLatitude": 14.15936, "marketLocalName": null, "marketLongitude": 38.900742, "marketName": "Adwa"}, {"admin1Code": 900542, "admin1Name": "Tigray", "admin2Code": 1007526, "admin2Name": "C. TIGRAY", "marketId": 477, "marketLatitude": 14.106699, "marketLocalName": null, "marketLongitude": 38.540339, "marketName": "Wekro"}, {"admin1Code": 900542, "admin1Name": "Tigray", "admin2Code": 1007527, "admin2Name": "E. TIGRAY", "marketId": 508, "marketLatitude": 14.2739499999999, "marketLocalName": null, "marketLongitude": 39.4622, "marketName": "Adigrat"}, {"admin1Code": 900542, "admin1Name": "Tigray", "admin2Code": 1007527, "admin2Name": "E. TIGRAY", "marketId": 509, "marketLatitude": 14.03333, "marketLocalName": null, "marketLongitude": 39.45, "marketName": "Hawzien"}, {"admin1Code": 900542, "admin1Name": "Tigray", "admin2Code": 1007461, "admin2Name": "MEKELE", "marketId": 487, "marketLatitude": 13.496667, "marketLocalName": null, "marketLongitude": 39.475278, "marketName": "Mekele"}, {"admin1Code": 900542, "admin1Name": "Tigray", "admin2Code": 1007461, "admin2Name": "MEKELE", "marketId": 3674, "marketLatitude": 13.50241, "marketLocalName": null, "marketLongitude": 39.480318, "marketName": "Quiha"}, {"admin1Code": 900542, "admin1Name": "Tigray", "admin2Code": 1007525, "admin2Name": "NW. TIGRAY", "marketId": 3653, "marketLatitude": 13.56092421, "marketLocalName": null, "marketLongitude": 38.13013187, "marketName": "May Tsemre"}, {"admin1Code": 900542, "admin1Name": "Tigray", "admin2Code": 1007525, "admin2Name": "NW. TIGRAY", "marketId": 3675, "marketLatitude": 14.4, "marketLocalName": null, "marketLongitude": 37.933333, "marketName": "Sheraro"}, {"admin1Code": 900542, "admin1Name": "Tigray", "admin2Code": 1007525, "admin2Name": "NW. TIGRAY", "marketId": 3107, "marketLatitude": 14.0999996, "marketLocalName": null, "marketLongitude": 38.2833322, "marketName": "Shire"}, {"admin1Code": 900542, "admin1Name": "Tigray", "admin2Code": 1007528, "admin2Name": "S. TIGRAY", "marketId": 458, "marketLatitude": 12.418333, "marketLocalName": null, "marketLongitude": 39.5575, "marketName": "Alamata"}, {"admin1Code": 900542, "admin1Name": "Tigray", "admin2Code": 1007528, "admin2Name": "S. TIGRAY", "marketId": 459, "marketLatitude": 12.5058333, "marketLocalName": null, "marketLongitude": 39.5227778, "marketName": "Korem"}, {"admin1Code": 900542, "admin1Name": "Tigray", "admin2Code": 1007528, "admin2Name": "S. TIGRAY", "marketId": 3673, "marketLatitude": 12.8036614, "marketLocalName": null, "marketLongitude": 39.6462265, "marketName": "Mehoni"}, {"admin1Code": 900542, "admin1Name": "Tigray", "admin2Code": 1007528, "admin2Name": "S. TIGRAY", "marketId": 856, "marketLatitude": 13.088746, "marketLocalName": null, "marketLongitude": 39.00994, "marketName": "Sik'ela"}, {"admin1Code": 900542, "admin1Name": "Tigray", "admin2Code": 1007524, "admin2Name": "W. TIGRAY", "marketId": 505, "marketLatitude": 14.290593, "marketLocalName": null, "marketLongitude": 36.608076, "marketName": "Humera"}], "page": 1, "totalItems": 119}