{"items": [{"admin1Code": 901145, "admin1Name": "Beni", "admin2Code": 1012047, "admin2Name": "Cercado", "marketId": 314, "marketLatitude": -14.837491, "marketLocalName": null, "marketLongitude": -64.904286, "marketName": "Trinidad"}, {"admin1Code": 901146, "admin1Name": "Chuquisaca", "admin2Code": 1012102, "admin2Name": "Oropeza", "marketId": 307, "marketLatitude": -19.043056, "marketLocalName": null, "marketLongitude": -65.259167, "marketName": "Sucre"}, {"admin1Code": 901147, "admin1Name": "Cochabamba", "admin2Code": 1012044, "admin2Name": "Cercado", "marketId": 309, "marketLatitude": -17.389498, "marketLocalName": null, "marketLongitude": -66.156797, "marketName": "Cochabamba City"}, {"admin1Code": 901148, "admin1Name": "La Paz", "admin2Code": 1012092, "admin2Name": "Murillo", "marketId": 308, "marketLatitude": -16.5, "marketLocalName": null, "marketLongitude": -68.15, "marketName": "La Paz City"}, {"admin1Code": 901149, "admin1Name": "Oruro", "admin2Code": 1012045, "admin2Name": "Cercado", "marketId": 310, "marketLatitude": -17.983333, "marketLocalName": null, "marketLongitude": -67.15, "marketName": "Oruro City"}, {"admin1Code": 901150, "admin1Name": "Pando", "admin2Code": 1012080, "admin2Name": "Madre de Dios", "marketId": 315, "marketLatitude": -11.783333, "marketLocalName": null, "marketLongitude": -67.9, "marketName": "Cobija"}, {"admin1Code": 901151, "admin1Name": "Potos\u00ed", "admin2Code": 1012123, "admin2Name": "Tomas Frias", "marketId": 311, "marketLatitude": -19.583611, "marketLocalName": null, "marketLongitude": -65.753056, "marketName": "Potosi"}, {"admin1Code": 901152, "admin1Name": "Santa Cruz", "admin2Code": 1012024, "admin2Name": "Andres Iba\u00f1ez", "marketId": 313, "marketLatitude": -17.8145819, "marketLocalName": null, "marketLongitude": -63.1560852999999, "marketName": "Santa Cruz City"}, {"admin1Code": 901153, "admin1Name": "Tarija", "admin2Code": 1012046, "admin2Name": "Cercado", "marketId": 312, "marketLatitude": -21.516667, "marketLocalName": null, "marketLongitude": -64.75, "marketName": "Tarija City"}], "page": 1, "totalItems": 9}