{"items": [{"admin1Code": 907, "admin1Name": "Hebei Sheng", "admin2Code": 13075, "admin2Name": "Shijiazhuang", "marketId": 2605, "marketLatitude": 38.04, "marketLocalName": null, "marketLongitude": 114.51, "marketName": "Sijiazhuang"}, {"admin1Code": 908, "admin1Name": "Heilongjiang Sheng", "admin2Code": 13086, "admin2Name": "Harbin", "marketId": 2584, "marketLatitude": 45.75, "marketLocalName": null, "marketLongitude": 126.63, "marketName": "Heilongjiang"}, {"admin1Code": 909, "admin1Name": "Henan Sheng", "admin2Code": 13099, "admin2Name": "Zhengzhou", "marketId": 2615, "marketLatitude": 34.77, "marketLocalName": null, "marketLongitude": 113.65, "marketName": "Zhengzhou"}, {"admin1Code": 911, "admin1Name": "Hubei Sheng", "admin2Code": 13123, "admin2Name": "Jingmen", "marketId": 2585, "marketLatitude": 30.97, "marketLocalName": null, "marketLongitude": 112.23, "marketName": "Hubei"}, {"admin1Code": 911, "admin1Name": "Hubei Sheng", "admin2Code": 13117, "admin2Name": "Wuhan", "marketId": 2612, "marketLatitude": 30.58, "marketLocalName": null, "marketLongitude": 114.28, "marketName": "Wuhan"}, {"admin1Code": 914, "admin1Name": "Jiangxi Sheng", "admin2Code": 13160, "admin2Name": "Jiujiang", "marketId": 2587, "marketLatitude": 29.66, "marketLocalName": null, "marketLongitude": 115.95, "marketName": "Jiujiang"}, {"admin1Code": 915, "admin1Name": "Jilin Sheng", "admin2Code": 13169, "admin2Name": "Jilin", "marketId": 2586, "marketLatitude": 43.42, "marketLocalName": null, "marketLongitude": 126.12, "marketName": "Jilin"}, {"admin1Code": 921, "admin1Name": "Shandong Sheng", "admin2Code": 13225, "admin2Name": "Jinan", "marketId": 2604, "marketLatitude": 36.4, "marketLocalName": null, "marketLongitude": 116.59, "marketName": "Shandong"}, {"admin1Code": 921, "admin1Name": "Shandong Sheng", "admin2Code": 13237, "admin2Name": "Linyi", "marketId": 2592, "marketLatitude": 35.05, "marketLocalName": null, "marketLongitude": 118.35, "marketName": "Linyi"}, {"admin1Code": 923, "admin1Name": "Shanxi Sheng", "admin2Code": 13254, "admin2Name": "Yuncheng", "marketId": 2614, "marketLatitude": 35.02, "marketLocalName": null, "marketLongitude": 110.98, "marketName": "Yuncheng"}, {"admin1Code": 930, "admin1Name": "Zhejiang Sheng", "admin2Code": 13319, "admin2Name": "Hangzhou", "marketId": 2583, "marketLatitude": 30.25, "marketLocalName": null, "marketLongitude": 120.17, "marketName": "Hangzhou"}], "page": 1, "totalItems": 11}